[
  {
    "name": "Fairfax, VA",
    "address": {
      "addressLocality": "Fairfax",
      "addressRegion": "VA"
    },
    "geo": {
      "latitude": 38.864158,
      "longitude": -77.2888239
    }
  },
  {
    "name": "Falls Church, VA",
    "address": {
      "addressLocality": "Falls Church",
      "addressRegion": "VA"
    },
    "geo": {
      "latitude": 38.8860528,
      "longitude": -77.1898726
    }
  },
  {
    "name": "Reston, VA",
    "address": {
      "addressLocality": "Reston",
      "addressRegion": "VA"
    },
    "geo": {
      "latitude": 38.9555819,
      "longitude": -77.3490615
    }
  },
  {
    "name": "Vienna, VA",
    "address": {
      "addressLocality": "Vienna",
      "addressRegion": "VA"
    },
    "geo": {
      "latitude": 38.900159,
      "longitude": -77.263014
    }
  },
  {
    "name": "Blacksburg, VA",
    "address": {
      "addressLocality": "Blacksburg",
      "addressRegion": "VA"
    },
    "geo": {
      "latitude": 37.2304516,
      "longitude": -80.4294548
    }
  },
  {
    "name": "Riner, VA",
    "address": {
      "addressLocality": "Riner",
      "addressRegion": "VA"
    },
    "geo": {
      "latitude": 37.0665176,
      "longitude": -80.4406068
    }
  },
  {
    "name": "Roanoke, VA",
    "address": {
      "addressLocality": "Roanoke",
      "addressRegion": "VA"
    },
    "geo": {
      "latitude": 37.2743219,
      "longitude": -79.9575425
    }
  },
  {
    "name": "Charlottesville, VA",
    "address": {
      "addressLocality": "Charlottesville",
      "addressRegion": "VA"
    },
    "geo": {
      "latitude": 38.0400874,
      "longitude": -78.4849739
    }
  },
  {
    "name": "Stanardsville, VA",
    "address": {
      "addressLocality": "Stanardsville",
      "addressRegion": "VA"
    },
    "geo": {
      "latitude": 38.2982581,
      "longitude": -78.4368073
    }
  },
  {
    "name": "Harrisonburg, VA",
    "address": {
      "addressLocality": "Harrisonburg",
      "addressRegion": "VA"
    },
    "geo": {
    "latitude": 38.4393105,
    "longitude": -78.8711824
    }
  },
  {
    "name": "Virginia Beach, VA",
    "address": {
      "addressLocality": "Virginia Beach",
      "addressRegion": "VA"
    },
    "geo": {
      "latitude": 36.7674971,
      "longitude": -76.0476647
    }
  },
  {
    "name": "Richmond, VA",
    "address": {
      "addressLocality": "Richmond",
      "addressRegion": "VA"
    },
    "geo": {
      "latitude": 37.5246609,
      "longitude": -77.4932615
    }
  },
]
